[
    {
        "latitude": 34.0522,
        "longitude": -118.2437,
        "address": "123 Main St, Los Angeles, CA 90012",
        "seller": "John Doe Realty",
        "owner": "Jane Smith",
        "state": "CA",
        "city": "Los Angeles",
        "price": 850000,
        "description": "A charming 3-bedroom, 2-bath home in the heart of downtown Los Angeles. Features a spacious backyard and modern kitchen.",
        "image": "https://via.placeholder.com/150"
    },
    {
        "latitude": 40.7128,
        "longitude": -74.0060,
        "address": "456 Elm St, New York, NY 10001",
        "seller": "Big Apple Realty",
        "owner": "Tom Brown",
        "state": "NY",
        "city": "New York",
        "price": 1200000,
        "description": "A luxurious 2-bedroom condo with stunning city views and state-of-the-art amenities in Manhattan.",
        "image": "https://via.placeholder.com/150"
    },
    {
        "latitude": 41.8781,
        "longitude": -87.6298,
        "address": "789 Oak St, Chicago, IL 60601",
        "seller": "Windy City Realty",
        "owner": "Alice Johnson",
        "state": "IL",
        "city": "Chicago",
        "price": 650000,
        "description": "A cozy 4-bedroom, 3-bath home with a modern design, located near parks and schools in a family-friendly neighborhood.",
        "image": "https://via.placeholder.com/150"
    },
    {
        "latitude": 29.7604,
        "longitude": -95.3698,
        "address": "321 Pine St, Houston, TX 77002",
        "seller": "Lone Star Realty",
        "owner": "Bob Williams",
        "state": "TX",
        "city": "Houston",
        "price": 400000,
        "description": "A beautiful 3-bedroom home featuring a spacious layout and a large backyard, perfect for entertaining.",
        "image": "https://via.placeholder.com/150"
    },
    {
        "latitude": 34.0522,
        "longitude": -118.2437,
        "address": "654 Maple Ave, San Francisco, CA 94102",
        "seller": "Bay Area Realty",
        "owner": "Sarah Green",
        "state": "CA",
        "city": "San Francisco",
        "price": 1500000,
        "description": "A stunning Victorian-style home with 5 bedrooms, 4 baths, and breathtaking views of the Golden Gate Bridge.",
        "image": "https://via.placeholder.com/150"
    },
    {
        "latitude": 39.7392,
        "longitude": -104.9903,
        "address": "789 Spruce St, Denver, CO 80202",
        "seller": "Rocky Mountain Realty",
        "owner": "Mike Taylor",
        "state": "CO",
        "city": "Denver",
        "price": 750000,
        "description": "A modern 4-bedroom home with open floor plan and large windows offering plenty of natural light.",
        "image": "https://via.placeholder.com/150"
    },
    {
        "latitude": 36.1699,
        "longitude": -115.1398,
        "address": "135 Desert Rd, Las Vegas, NV 89101",
        "seller": "Desert Realty",
        "owner": "Emily White",
        "state": "NV",
        "city": "Las Vegas",
        "price": 950000,
        "description": "A luxurious 3-bedroom villa with a pool, located in a gated community with fantastic amenities.",
        "image": "https://via.placeholder.com/150"
    },
    {
        "latitude": 47.6062,
        "longitude": -122.3321,
        "address": "246 Birch St, Seattle, WA 98101",
        "seller": "Pacific Realty",
        "owner": "Daniel Black",
        "state": "WA",
        "city": "Seattle",
        "price": 820000,
        "description": "A contemporary 2-bedroom apartment with a rooftop deck offering spectacular views of the city skyline.",
        "image": "https://via.placeholder.com/150"
    },
    {
        "latitude": 25.7617,
        "longitude": -80.1918,
        "address": "333 Ocean Dr, Miami, FL 33139",
        "seller": "Sunny Isles Realty",
        "owner": "Laura Blue",
        "state": "FL",
        "city": "Miami",
        "price": 1300000,
        "description": "A beachfront property with 4 bedrooms and a stunning view of the ocean, perfect for relaxation.",
        "image": "https://via.placeholder.com/150"
    },
    {
        "latitude": 33.4484,
        "longitude": -112.0740,
        "address": "111 Sunset Blvd, Phoenix, AZ 85001",
        "seller": "Desert Sun Realty",
        "owner": "Chris Red",
        "state": "AZ",
        "city": "Phoenix",
        "price": 600000,
        "description": "A spacious 3-bedroom home with a pool and a large backyard, located near local amenities.",
        "image": "https://via.placeholder.com/150"
    },
    {
        "latitude": 30.2672,
        "longitude": -97.7431,
        "address": "456 Lakeview Dr, Austin, TX 73301",
        "seller": "Capitol City Realty",
        "owner": "Samantha Green",
        "state": "TX",
        "city": "Austin",
        "price": 900000,
        "description": "A stylish 4-bedroom home in a vibrant neighborhood with great schools and parks.",
        "image": "https://via.placeholder.com/150"
    }
]
